{
	"dictname": "contact",
	"dictcontant":	[
	   {
		  "location" : {
			 "city" : "济南",
			 "country" : "中国",
			 "province" : "山东"
		  },
		  "name" : "何至明",
		  "phoneNumber" : "15098810526",
		  "teleOpr" : "移动",
		  "type" : "家庭"
	   },
	   {
		  "location" : {
			 "city" : "济南",
			 "country" : "中国",
			 "province" : "山东"
		  },
		  "name" : "何至明",
		  "phoneNumber" : "15168806466",
		  "teleOpr" : "移动",
		  "type" : "家庭"
	   },
	   {
		  "location" : {
			 "city" : "无锡",
			 "country" : "中国",
			 "province" : "江苏"
		  },
		  "name" : "李琼",
		  "phoneNumber" : "13915288971",
		  "teleOpr" : "移动",
		  "type" : "家庭"
	   },
	   {
		  "location" : {
			 "city" : "无锡",
			 "country" : "中国",
			 "province" : "江苏"
		  },
		  "name" : "李琼",
		  "phoneNumber" : "13093044694",
		  "teleOpr" : "联通",
		  "type" : "家庭"
	   },
	   {
		  "location" : {
			 "city" : "银川",
			 "country" : "中国",
			 "province" : "宁夏"
		  },
		  "name" : "陈勇齐",
		  "phoneNumber" : "18695150798",
		  "teleOpr" : "联通",
		  "type" : "家庭"
	   },
	   {
		  "location" : {
			 "city" : "海口",
			 "country" : "中国",
			 "province" : "海南"
		  },
		  "name" : "陈勇齐",
		  "phoneNumber" : "18608907942",
		  "teleOpr" : "联通",
		  "type" : "家庭"
	   },
	   {
		  "location" : {
			 "city" : "惠州",
			 "country" : "中国",
			 "province" : "广东"
		  },
		  "name" : "杨建军",
		  "phoneNumber" : "13316372194",
		  "teleOpr" : "电信",
		  "type" : "家庭"
	   },
	   {
		  "location" : {
			 "city" : "牡丹江",
			 "country" : "中国",
			 "province" : "黑龙江"
		  },
		  "name" : "杨建军",
		  "phoneNumber" : "18645372216",
		  "teleOpr" : "联通",
		  "type" : "家庭"
	   },
	   {
		  "location" : {
			 "city" : "福州",
			 "country" : "中国",
			 "province" : "福建"
		  },
		  "name" : "里老板",
		  "phoneNumber" : "18605089662",
		  "teleOpr" : "联通",
		  "type" : "家庭"
	   },
	   {
		  "location" : {
			 "city" : "临沂",
			 "country" : "中国",
			 "province" : "山东"
		  },
		  "name" : "徐松电工",
		  "phoneNumber" : "18605491665",
		  "teleOpr" : "联通",
		  "type" : "家庭"
	   },
	   {
		  "location" : {
			 "city" : "延安",
			 "country" : "中国",
			 "province" : "陕西"
		  },
		  "name" : "电工吉伟",
		  "phoneNumber" : "18691159463",
		  "teleOpr" : "联通",
		  "type" : "家庭"
	   },
	   {
		  "location" : {
			 "city" : "鹰潭",
			 "country" : "中国",
			 "province" : "江西"
		  },
		  "name" : "电工孟军",
		  "phoneNumber" : "18607016704",
		  "teleOpr" : "联通",
		  "type" : "家庭"
	   },
	   {
		  "location" : {
			 "city" : "深圳",
			 "country" : "中国",
			 "province" : "广东"
		  },
		  "name" : "二娃",
		  "phoneNumber" : "18665897778",
		  "teleOpr" : "联通",
		  "type" : "家庭"
	   },
	   {
		  "location" : {
			 "city" : "吕梁",
			 "country" : "中国",
			 "province" : "山西"
		  },
		  "name" : "张红卫短",
		  "phoneNumber" : "18636419492",
		  "teleOpr" : "联通",
		  "type" : "家庭"
	   },
	   {
		  "location" : {
			 "city" : "奎屯",
			 "country" : "中国",
			 "province" : "新疆"
		  },
		  "name" : "何惠群",
		  "phoneNumber" : "13394924763",
		  "teleOpr" : "电信",
		  "type" : "家庭"
	   },
	   {
		  "location" : {
			 "city" : "广州",
			 "country" : "中国",
			 "province" : "广东"
		  },
		  "name" : "伍云民",
		  "phoneNumber" : "13378699921",
		  "teleOpr" : "电信",
		  "type" : "家庭"
	   },
	   {
		  "location" : {
			 "city" : "合肥",
			 "country" : "中国",
			 "province" : "安徽"
		  },
		  "name" : "张叔叔",
		  "phoneNumber" : "13305699464",
		  "teleOpr" : "电信",
		  "type" : "家庭"
	   },
	   {
		  "location" : {
			 "city" : "长沙",
			 "country" : "中国",
			 "province" : "湖南"
		  },
		  "name" : "雷超刚",
		  "phoneNumber" : "13348714965",
		  "teleOpr" : "电信",
		  "type" : "家庭"
	   },
	   {
		  "location" : {
			 "city" : "丹东",
			 "country" : "中国",
			 "province" : "辽宁"
		  },
		  "name" : "李朋短",
		  "phoneNumber" : "13358787401",
		  "teleOpr" : "电信",
		  "type" : "家庭"
	   },
	   {
		  "location" : {
			 "city" : "南京",
			 "country" : "中国",
			 "province" : "江苏"
		  },
		  "name" : "辜建强",
		  "phoneNumber" : "13337816297",
		  "teleOpr" : "电信",
		  "type" : "家庭"
	   },
	   {
		  "location" : {
			 "city" : "杭州",
			 "country" : "中国",
			 "province" : "浙江"
		  },
		  "name" : "周淑斌",
		  "phoneNumber" : "13375719884",
		  "teleOpr" : "电信",
		  "type" : "家庭"
	   },
	   {
		  "location" : {
			 "city" : "营口",
			 "country" : "中国",
			 "province" : "辽宁"
		  },
		  "name" : "何军",
		  "phoneNumber" : "13314070907",
		  "teleOpr" : "电信",
		  "type" : "家庭"
	   },
	   {
		  "location" : {
			 "city" : "大理",
			 "country" : "中国",
			 "province" : "云南"
		  },
		  "name" : "社保卡",
		  "phoneNumber" : "13324940402",
		  "teleOpr" : "电信",
		  "type" : "家庭"
	   },
	   {
		  "location" : {
			 "city" : "台州",
			 "country" : "中国",
			 "province" : "浙江"
		  },
		  "name" : "松会计",
		  "phoneNumber" : "13326092290",
		  "teleOpr" : "电信",
		  "type" : "家庭"
	   },
	   {
		  "location" : {
			 "city" : "宁波",
			 "country" : "中国",
			 "province" : "浙江"
		  },
		  "name" : "余术芳",
		  "phoneNumber" : "13306654460",
		  "teleOpr" : "电信",
		  "type" : "家庭"
	   },
	   {
		  "location" : {
			 "city" : "唐山",
			 "country" : "中国",
			 "province" : "河北"
		  },
		  "name" : "张学建",
		  "phoneNumber" : "13313295645",
		  "teleOpr" : "电信",
		  "type" : "家庭"
	   },
	   {
		  "location" : {
			 "city" : "潍坊",
			 "country" : "中国",
			 "province" : "山东"
		  },
		  "name" : "汪志全",
		  "phoneNumber" : "13356749315",
		  "teleOpr" : "电信",
		  "type" : "家庭"
	   },
	   {
		  "location" : {
			 "city" : "宜宾",
			 "country" : "中国",
			 "province" : "四川"
		  },
		  "name" : "何保清",
		  "phoneNumber" : "13330664501",
		  "teleOpr" : "电信",
		  "type" : "家庭"
	   },
	   {
		  "location" : {
			 "city" : "池州",
			 "country" : "中国",
			 "province" : "安徽"
		  },
		  "name" : "何丹",
		  "phoneNumber" : "13399668482",
		  "teleOpr" : "电信",
		  "type" : "家庭"
	   },
	   {
		  "location" : {
			 "city" : "淄博",
			 "country" : "中国",
			 "province" : "山东"
		  },
		  "name" : "青神中医生",
		  "phoneNumber" : "15336435350",
		  "teleOpr" : "电信",
		  "type" : "家庭"
	   },
	   {
		  "location" : {
			 "city" : "金华",
			 "country" : "中国",
			 "province" : "浙江"
		  },
		  "name" : "余小艳",
		  "phoneNumber" : "15325994576",
		  "teleOpr" : "电信",
		  "type" : "家庭"
	   },
	   {
		  "location" : {
			 "city" : "鄂州",
			 "country" : "中国",
			 "province" : "湖北"
		  },
		  "name" : "马德清",
		  "phoneNumber" : "15342598424",
		  "teleOpr" : "电信",
		  "type" : "家庭"
	   },
	   {
		  "location" : {
			 "city" : "中山",
			 "country" : "中国",
			 "province" : "广东"
		  },
		  "name" : "二号痴呆娃",
		  "phoneNumber" : "15338269789",
		  "teleOpr" : "电信",
		  "type" : "家庭"
	   },
	   {
		  "location" : {
			 "city" : "三明",
			 "country" : "中国",
			 "province" : "福建"
		  },
		  "name" : "星光",
		  "phoneNumber" : "15392319864",
		  "teleOpr" : "电信",
		  "type" : "家庭"
	   },
	   {
		  "location" : {
			 "city" : "常州",
			 "country" : "中国",
			 "province" : "江苏"
		  },
		  "name" : "叉车曹",
		  "phoneNumber" : "15312534072",
		  "teleOpr" : "电信",
		  "type" : "家庭"
	   },
	   {
		  "location" : {
			 "city" : "蚌埠",
			 "country" : "中国",
			 "province" : "安徽"
		  },
		  "name" : "陈建勇",
		  "phoneNumber" : "15395240500",
		  "teleOpr" : "电信",
		  "type" : "家庭"
	   },
	   {
		  "location" : {
			 "city" : "马鞍山",
			 "country" : "中国",
			 "province" : "安徽"
		  },
		  "name" : "韩姐短号",
		  "phoneNumber" : "15357963773",
		  "teleOpr" : "电信",
		  "type" : "家庭"
	   },
	   {
		  "location" : {
			 "city" : "武汉",
			 "country" : "中国",
			 "province" : "湖北"
		  },
		  "name" : "叉车苟志平",
		  "phoneNumber" : "15327329435",
		  "teleOpr" : "电信",
		  "type" : "家庭"
	   },
	   {
		  "location" : {
			 "city" : "广州",
			 "country" : "中国",
			 "province" : "广东"
		  },
		  "name" : "刘志伦",
		  "phoneNumber" : "15302274499",
		  "teleOpr" : "电信",
		  "type" : "家庭"
	   },
	   {
		  "location" : {
			 "city" : "泉州",
			 "country" : "中国",
			 "province" : "福建"
		  },
		  "name" : "刘伙清",
		  "phoneNumber" : "15359054714",
		  "teleOpr" : "电信",
		  "type" : "家庭"
	   },
	   {
		  "location" : {
			 "city" : "锡林浩特",
			 "country" : "中国",
			 "province" : "内蒙古"
		  },
		  "name" : "何志民新",
		  "phoneNumber" : "15326796121",
		  "teleOpr" : "电信",
		  "type" : "家庭"
	   },
	   {
		  "location" : {
			 "city" : "哈尔滨",
			 "country" : "中国",
			 "province" : "黑龙江"
		  },
		  "name" : "雪峰电子",
		  "phoneNumber" : "15344503716",
		  "teleOpr" : "电信",
		  "type" : "家庭"
	   },
	   {
		  "location" : {
			 "city" : "武汉",
			 "country" : "中国",
			 "province" : "湖北"
		  },
		  "name" : "虞段",
		  "phoneNumber" : "15342348348",
		  "teleOpr" : "电信",
		  "type" : "家庭"
	   },
	   {
		  "location" : {
			 "city" : "奎屯",
			 "country" : "中国",
			 "province" : "新疆"
		  },
		  "name" : "周保成",
		  "phoneNumber" : "15352705216",
		  "teleOpr" : "电信",
		  "type" : "家庭"
	   },
	   {
		  "location" : {
			 "city" : "金华",
			 "country" : "中国",
			 "province" : "浙江"
		  },
		  "name" : "罗伟",
		  "phoneNumber" : "13777530504",
		  "teleOpr" : "移动",
		  "type" : "家庭"
	   },
	   {
		  "location" : {
			 "city" : "南昌",
			 "country" : "中国",
			 "province" : "江西"
		  },
		  "name" : "老婆",
		  "phoneNumber" : "13732971854",
		  "teleOpr" : "移动",
		  "type" : "家庭"
	   },
	   {
		  "location" : {
			 "city" : "成都",
			 "country" : "中国",
			 "province" : "四川"
		  },
		  "name" : "颜刚",
		  "phoneNumber" : "13730854501",
		  "teleOpr" : "移动",
		  "type" : "家庭"
	   },
	   {
		  "location" : {
			 "city" : "滨州",
			 "country" : "中国",
			 "province" : "山东"
		  },
		  "name" : "李健",
		  "phoneNumber" : "13793866883",
		  "teleOpr" : "移动",
		  "type" : "家庭"
	   },
	   {
		  "location" : {
			 "city" : "海口",
			 "country" : "中国",
			 "province" : "海南"
		  },
		  "name" : "周保安",
		  "phoneNumber" : "13876587158",
		  "teleOpr" : "移动",
		  "type" : "家庭"
	   },
	   {
		  "location" : {
			 "city" : "黑河",
			 "country" : "中国",
			 "province" : "黑龙江"
		  },
		  "name" : "叉车廖斗平",
		  "phoneNumber" : "13845648315",
		  "teleOpr" : "移动",
		  "type" : "家庭"
	   },
	   {
		  "location" : {
			 "city" : "亳州",
			 "country" : "中国",
			 "province" : "安徽"
		  },
		  "name" : "英语老师",
		  "phoneNumber" : "13856728987",
		  "teleOpr" : "移动",
		  "type" : "家庭"
	   },
	   {
		  "location" : {
			 "city" : "枣庄",
			 "country" : "中国",
			 "province" : "山东"
		  },
		  "name" : "眉山天然气",
		  "phoneNumber" : "13869467614",
		  "teleOpr" : "移动",
		  "type" : "家庭"
	   },
	   {
		  "location" : {
			 "city" : "温州",
			 "country" : "中国",
			 "province" : "浙江"
		  },
		  "name" : "欧毅叉车",
		  "phoneNumber" : "13867797395",
		  "teleOpr" : "移动",
		  "type" : "家庭"
	   },
	   {
		  "location" : {
			 "city" : "莱芜",
			 "country" : "中国",
			 "province" : "山东"
		  },
		  "name" : "韩姐",
		  "phoneNumber" : "13863418059",
		  "teleOpr" : "移动",
		  "type" : "家庭"
	   },
	   {
		  "location" : {
			 "city" : "海口",
			 "country" : "中国",
			 "province" : "海南"
		  },
		  "name" : "眉山魅族",
		  "phoneNumber" : "13876655548",
		  "teleOpr" : "移动",
		  "type" : "家庭"
	   },
	   {
		  "location" : {
			 "city" : "安庆",
			 "country" : "中国",
			 "province" : "安徽"
		  },
		  "name" : "肖志红",
		  "phoneNumber" : "13855677398",
		  "teleOpr" : "移动",
		  "type" : "家庭"
	   },
	   {
		  "location" : {
			 "city" : "惠州",
			 "country" : "中国",
			 "province" : "广东"
		  },
		  "name" : "欢乐妹妹",
		  "phoneNumber" : "13829940835",
		  "teleOpr" : "移动",
		  "type" : "家庭"
	   },
	   {
		  "location" : {
			 "city" : "百色",
			 "country" : "中国",
			 "province" : "广西"
		  },
		  "name" : "周老",
		  "phoneNumber" : "13877653154",
		  "teleOpr" : "移动",
		  "type" : "家庭"
	   },
	   {
		  "location" : {
			 "city" : "南平",
			 "country" : "中国",
			 "province" : "福建"
		  },
		  "name" : "肖云辉",
		  "phoneNumber" : "13860013790",
		  "teleOpr" : "移动",
		  "type" : "家庭"
	   },
	   {
		  "location" : {
			 "city" : "长治",
			 "country" : "中国",
			 "province" : "山西"
		  },
		  "name" : "家具老板",
		  "phoneNumber" : "13994615836",
		  "teleOpr" : "移动",
		  "type" : "家庭"
	   },
	   {
		  "location" : {
			 "city" : "佛山",
			 "country" : "中国",
			 "province" : "广东"
		  },
		  "name" : "严服全",
		  "phoneNumber" : "13928543419",
		  "teleOpr" : "移动",
		  "type" : "家庭"
	   },
	   {
		  "location" : {
			 "city" : "庆阳",
			 "country" : "中国",
			 "province" : "甘肃"
		  },
		  "name" : "杨因",
		  "phoneNumber" : "13919597135",
		  "teleOpr" : "移动",
		  "type" : "家庭"
	   },
	   {
		  "location" : {
			 "city" : "郑州",
			 "country" : "中国",
			 "province" : "河南"
		  },
		  "name" : "黄治强",
		  "phoneNumber" : "13938598027",
		  "teleOpr" : "移动",
		  "type" : "家庭"
	   },
	   {
		  "location" : {
			 "city" : "无锡",
			 "country" : "中国",
			 "province" : "江苏"
		  },
		  "name" : "刘小平",
		  "phoneNumber" : "13915288971",
		  "teleOpr" : "移动",
		  "type" : "家庭"
	   },
	   {
		  "location" : {
			 "city" : "扬州",
			 "country" : "中国",
			 "province" : "江苏"
		  },
		  "name" : "张学华",
		  "phoneNumber" : "13952753168",
		  "teleOpr" : "移动",
		  "type" : "家庭"
	   },
	   {
		  "location" : {
			 "city" : "潢川",
			 "country" : "中国",
			 "province" : "河南"
		  },
		  "name" : "马冶红",
		  "phoneNumber" : "13937620102",
		  "teleOpr" : "移动",
		  "type" : "家庭"
	   },
	   {
		  "location" : {
			 "city" : "锦州",
			 "country" : "中国",
			 "province" : "辽宁"
		  },
		  "name" : "刘得一",
		  "phoneNumber" : "13941623585",
		  "teleOpr" : "移动",
		  "type" : "家庭"
	   },
	   {
		  "location" : {
			 "city" : "长沙",
			 "country" : "中国",
			 "province" : "湖南"
		  },
		  "name" : "郭老师",
		  "phoneNumber" : "13974837337",
		  "teleOpr" : "移动",
		  "type" : "家庭"
	   },
	   {
		  "location" : {
			 "city" : "临沂",
			 "country" : "中国",
			 "province" : "山东"
		  },
		  "name" : "刘志伦家",
		  "phoneNumber" : "13954953604",
		  "teleOpr" : "移动",
		  "type" : "家庭"
	   },
	   {
		  "location" : {
			 "city" : "南京",
			 "country" : "中国",
			 "province" : "江苏"
		  },
		  "name" : "张永安",
		  "phoneNumber" : "13952031243",
		  "teleOpr" : "移动",
		  "type" : "家庭"
	   },
	   {
		  "location" : {
			 "city" : "邯郸",
			 "country" : "中国",
			 "province" : "河北"
		  },
		  "name" : "叉车周勇兵",
		  "phoneNumber" : "15081758892",
		  "teleOpr" : "移动",
		  "type" : "家庭"
	   },
	   {
		  "location" : {
			 "city" : "日照",
			 "country" : "中国",
			 "province" : "山东"
		  },
		  "name" : "李小玉",
		  "phoneNumber" : "15006919946",
		  "teleOpr" : "移动",
		  "type" : "家庭"
	   },
	   {
		  "location" : {
			 "city" : "宁波",
			 "country" : "中国",
			 "province" : "浙江"
		  },
		  "name" : "冯里",
		  "phoneNumber" : "15067427137",
		  "teleOpr" : "移动",
		  "type" : "家庭"
	   },
	   {
		  "location" : {
			 "city" : "唐山",
			 "country" : "中国",
			 "province" : "河北"
		  },
		  "name" : "王永年家",
		  "phoneNumber" : "15031554169",
		  "teleOpr" : "移动",
		  "type" : "家庭"
	   },
	   {
		  "location" : {
			 "city" : "齐齐哈尔",
			 "country" : "中国",
			 "province" : "黑龙江"
		  },
		  "name" : "何泽文",
		  "phoneNumber" : "15045241611",
		  "teleOpr" : "移动",
		  "type" : "家庭"
	   },
	   {
		  "location" : {
			 "city" : "玉溪",
			 "country" : "中国",
			 "province" : "云南"
		  },
		  "name" : "汪中华",
		  "phoneNumber" : "15087745489",
		  "teleOpr" : "移动",
		  "type" : "家庭"
	   },
	   {
		  "location" : {
			 "city" : "宜春",
			 "country" : "中国",
			 "province" : "江西"
		  },
		  "name" : "徐红",
		  "phoneNumber" : "15079545167",
		  "teleOpr" : "移动",
		  "type" : "家庭"
	   },
	   {
		  "location" : {
			 "city" : "临沂",
			 "country" : "中国",
			 "province" : "山东"
		  },
		  "name" : "叉车李勇军",
		  "phoneNumber" : "15065930435",
		  "teleOpr" : "移动",
		  "type" : "家庭"
	   },
	   {
		  "location" : {
			 "city" : "衢州",
			 "country" : "中国",
			 "province" : "浙江"
		  },
		  "name" : "樊勇志",
		  "phoneNumber" : "15068969985",
		  "teleOpr" : "移动",
		  "type" : "家庭"
	   },
	   {
		  "location" : {
			 "city" : "长春",
			 "country" : "中国",
			 "province" : "吉林"
		  },
		  "name" : "杨用勇",
		  "phoneNumber" : "15044033820",
		  "teleOpr" : "移动",
		  "type" : "家庭"
	   },
	   {
		  "location" : {
			 "city" : "运城",
			 "country" : "中国",
			 "province" : "山西"
		  },
		  "name" : "李朋",
		  "phoneNumber" : "15035476156",
		  "teleOpr" : "移动",
		  "type" : "家庭"
	   },
	   {
		  "location" : {
			 "city" : "景德镇",
			 "country" : "中国",
			 "province" : "江西"
		  },
		  "name" : "谌超北京",
		  "phoneNumber" : "15179868264",
		  "teleOpr" : "移动",
		  "type" : "家庭"
	   },
	   {
		  "location" : {
			 "city" : "惠州",
			 "country" : "中国",
			 "province" : "广东"
		  },
		  "name" : "吕红",
		  "phoneNumber" : "15118984903",
		  "teleOpr" : "移动",
		  "type" : "家庭"
	   },
	   {
		  "location" : {
			 "city" : "保山",
			 "country" : "中国",
			 "province" : "云南"
		  },
		  "name" : "成都新华保险",
		  "phoneNumber" : "15187523941",
		  "teleOpr" : "移动",
		  "type" : "家庭"
	   },
	   {
		  "location" : {
			 "city" : "自贡",
			 "country" : "中国",
			 "province" : "四川"
		  },
		  "name" : "肖杰",
		  "phoneNumber" : "15196043613",
		  "teleOpr" : "移动",
		  "type" : "家庭"
	   },
	   {
		  "location" : {
			 "city" : "曲靖",
			 "country" : "中国",
			 "province" : "云南"
		  },
		  "name" : "张雪松",
		  "phoneNumber" : "15188119865",
		  "teleOpr" : "移动",
		  "type" : "家庭"
	   },
	   {
		  "location" : {
			 "city" : "石河子",
			 "country" : "中国",
			 "province" : "新疆"
		  },
		  "name" : "杜如兵",
		  "phoneNumber" : "15199384890",
		  "teleOpr" : "移动",
		  "type" : "家庭"
	   },
	   {
		  "location" : {
			 "city" : "保定",
			 "country" : "中国",
			 "province" : "河北"
		  },
		  "name" : "老丈母",
		  "phoneNumber" : "15128967294",
		  "teleOpr" : "移动",
		  "type" : "家庭"
	   },
	   {
		  "location" : {
			 "city" : "西宁",
			 "country" : "中国",
			 "province" : "青海"
		  },
		  "name" : "张永安家",
		  "phoneNumber" : "15110951215",
		  "teleOpr" : "移动",
		  "type" : "家庭"
	   },
	   {
		  "location" : {
			 "city" : "襄樊",
			 "country" : "中国",
			 "province" : "湖北"
		  },
		  "name" : "毛娃",
		  "phoneNumber" : "15107279155",
		  "teleOpr" : "移动",
		  "type" : "家庭"
	   },
	   {
		  "location" : {
			 "city" : "朝阳",
			 "country" : "中国",
			 "province" : "辽宁"
		  },
		  "name" : "文塘姑父",
		  "phoneNumber" : "15104210149",
		  "teleOpr" : "移动",
		  "type" : "家庭"
	   },
	   {
		  "location" : {
			 "city" : "通辽",
			 "country" : "中国",
			 "province" : "内蒙古"
		  },
		  "name" : "陈宝员",
		  "phoneNumber" : "15149986352",
		  "teleOpr" : "移动",
		  "type" : "家庭"
	   },
	   {
		  "location" : {
			 "city" : "邢台",
			 "country" : "中国",
			 "province" : "河北"
		  },
		  "name" : "陈健全",
		  "phoneNumber" : "15130986581",
		  "teleOpr" : "移动",
		  "type" : "家庭"
	   },
	   {
		  "location" : {
			 "city" : "呼和浩特",
			 "country" : "中国",
			 "province" : "内蒙古"
		  },
		  "name" : "摩的",
		  "phoneNumber" : "15148074052",
		  "teleOpr" : "移动",
		  "type" : "家庭"
	   },
	   {
		  "location" : {
			 "city" : "龙岩",
			 "country" : "中国",
			 "province" : "福建"
		  },
		  "name" : "余述君",
		  "phoneNumber" : "15280398469",
		  "teleOpr" : "移动",
		  "type" : "家庭"
	   },
	   {
		  "location" : {
			 "city" : "宿迁",
			 "country" : "中国",
			 "province" : "江苏"
		  },
		  "name" : "杨平成都",
		  "phoneNumber" : "15252422841",
		  "teleOpr" : "移动",
		  "type" : "家庭"
	   },
	   {
		  "location" : {
			 "city" : "东莞",
			 "country" : "中国",
			 "province" : "广东"
		  },
		  "name" : "党建军新",
		  "phoneNumber" : "15218762403",
		  "teleOpr" : "移动",
		  "type" : "家庭"
	   },
	   {
		  "location" : {
			 "city" : "绵阳",
			 "country" : "中国",
			 "province" : "四川"
		  },
		  "name" : "叉车欧益",
		  "phoneNumber" : "15228326452",
		  "teleOpr" : "移动",
		  "type" : "家庭"
	   },
	   {
		  "location" : {
			 "city" : "常德",
			 "country" : "中国",
			 "province" : "湖南"
		  },
		  "name" : "青神新化宝险",
		  "phoneNumber" : "15273696194",
		  "teleOpr" : "移动",
		  "type" : "家庭"
	   },
	   {
		  "location" : {
			 "city" : "昌吉",
			 "country" : "中国",
			 "province" : "新疆"
		  },
		  "name" : "一队女司机",
		  "phoneNumber" : "15292643943",
		  "teleOpr" : "移动",
		  "type" : "家庭"
	   },
	   {
		  "location" : {
			 "city" : "菏泽",
			 "country" : "中国",
			 "province" : "山东"
		  },
		  "name" : "收气费美女",
		  "phoneNumber" : "15275098692",
		  "teleOpr" : "移动",
		  "type" : "家庭"
	   },
	   {
		  "location" : {
			 "city" : "沧州",
			 "country" : "中国",
			 "province" : "河北"
		  },
		  "name" : "成都恒余",
		  "phoneNumber" : "15226798549",
		  "teleOpr" : "移动",
		  "type" : "家庭"
	   },
	   {
		  "location" : {
			 "city" : "益阳",
			 "country" : "中国",
			 "province" : "湖南"
		  },
		  "name" : "陈亚军",
		  "phoneNumber" : "15274757696",
		  "teleOpr" : "移动",
		  "type" : "家庭"
	   },
	   {
		  "location" : {
			 "city" : "南京",
			 "country" : "中国",
			 "province" : "江苏"
		  },
		  "name" : "何才的奶",
		  "phoneNumber" : "15252477618",
		  "teleOpr" : "移动",
		  "type" : "家庭"
	   },
	   {
		  "location" : {
			 "city" : "延安",
			 "country" : "中国",
			 "province" : "陕西"
		  },
		  "name" : "秦中强新",
		  "phoneNumber" : "15291122820",
		  "teleOpr" : "移动",
		  "type" : "家庭"
	   },
	   {
		  "location" : {
			 "city" : "成都",
			 "country" : "中国",
			 "province" : "四川"
		  },
		  "name" : "杨建军短",
		  "phoneNumber" : "15756222230",
		  "teleOpr" : "移动",
		  "type" : "家庭"
	   },
	   {
		  "location" : {
			 "city" : "泉州",
			 "country" : "中国",
			 "province" : "福建"
		  },
		  "name" : "甘雪松机修",
		  "phoneNumber" : "15750955800",
		  "teleOpr" : "移动",
		  "type" : "家庭"
	   },
	   {
		  "location" : {
			 "city" : "哈尔滨",
			 "country" : "中国",
			 "province" : "黑龙江"
		  },
		  "name" : "段主任",
		  "phoneNumber" : "15776318752",
		  "teleOpr" : "移动",
		  "type" : "家庭"
	   },
	   {
		  "location" : {
			 "city" : "百色",
			 "country" : "中国",
			 "province" : "广西"
		  },
		  "name" : "刘志清",
		  "phoneNumber" : "15777672608",
		  "teleOpr" : "移动",
		  "type" : "家庭"
	   },
	   {
		  "location" : {
			 "city" : "河池",
			 "country" : "中国",
			 "province" : "广西"
		  },
		  "name" : "招待所",
		  "phoneNumber" : "15723881542",
		  "teleOpr" : "移动",
		  "type" : "家庭"
	   },
	   {
		  "location" : {
			 "city" : "成都",
			 "country" : "中国",
			 "province" : "四川"
		  },
		  "name" : "极修阳",
		  "phoneNumber" : "15756332302",
		  "teleOpr" : "移动",
		  "type" : "家庭"
	   },
	   {
		  "location" : {
			 "city" : "青岛",
			 "country" : "中国",
			 "province" : "山东"
		  },
		  "name" : "周常青",
		  "phoneNumber" : "15726200581",
		  "teleOpr" : "移动",
		  "type" : "家庭"
	   },
	   {
		  "location" : {
			 "city" : "阿坝",
			 "country" : "中国",
			 "province" : "四川"
		  },
		  "name" : "陈所长",
		  "phoneNumber" : "15756994547",
		  "teleOpr" : "移动",
		  "type" : "家庭"
	   },
	   {
		  "location" : {
			 "city" : "通辽",
			 "country" : "中国",
			 "province" : "内蒙古"
		  },
		  "name" : "何碧贤",
		  "phoneNumber" : "15750567102",
		  "teleOpr" : "移动",
		  "type" : "家庭"
	   },
	   {
		  "location" : {
			 "city" : "沧州",
			 "country" : "中国",
			 "province" : "河北"
		  },
		  "name" : "兰小明新华",
		  "phoneNumber" : "15713379337",
		  "teleOpr" : "移动",
		  "type" : "家庭"
	   },
	   {
		  "location" : {
			 "city" : "吉安",
			 "country" : "中国",
			 "province" : "江西"
		  },
		  "name" : "赵文安",
		  "phoneNumber" : "15879603142",
		  "teleOpr" : "移动",
		  "type" : "家庭"
	   },
	   {
		  "location" : {
			 "city" : "邵阳",
			 "country" : "中国",
			 "province" : "湖南"
		  },
		  "name" : "孙强新",
		  "phoneNumber" : "15873782555",
		  "teleOpr" : "移动",
		  "type" : "家庭"
	   },
	   {
		  "location" : {
			 "city" : "滁州",
			 "country" : "中国",
			 "province" : "安徽"
		  },
		  "name" : "黑龙联通",
		  "phoneNumber" : "15805501334",
		  "teleOpr" : "移动",
		  "type" : "家庭"
	   },
	   {
		  "location" : {
			 "city" : "莆田",
			 "country" : "中国",
			 "province" : "福建"
		  },
		  "name" : "伟娃湖北",
		  "phoneNumber" : "15892074677",
		  "teleOpr" : "移动",
		  "type" : "家庭"
	   },
	   {
		  "location" : {
			 "city" : "盘锦",
			 "country" : "中国",
			 "province" : "辽宁"
		  },
		  "name" : "邓文全",
		  "phoneNumber" : "15842736149",
		  "teleOpr" : "移动",
		  "type" : "家庭"
	   },
	   {
		  "location" : {
			 "city" : "周口",
			 "country" : "中国",
			 "province" : "河南"
		  },
		  "name" : "胖妹",
		  "phoneNumber" : "15836279351",
		  "teleOpr" : "移动",
		  "type" : "家庭"
	   },
	   {
		  "location" : {
			 "city" : "商丘",
			 "country" : "中国",
			 "province" : "河南"
		  },
		  "name" : "张俊民",
		  "phoneNumber" : "15836400153",
		  "teleOpr" : "移动",
		  "type" : "家庭"
	   },
	   {
		  "location" : {
			 "city" : "沈阳",
			 "country" : "中国",
			 "province" : "辽宁"
		  },
		  "name" : "张老板暴格",
		  "phoneNumber" : "15804092976",
		  "teleOpr" : "移动",
		  "type" : "家庭"
	   },
	   {
		  "location" : {
			 "city" : "南京",
			 "country" : "中国",
			 "province" : "江苏"
		  },
		  "name" : "王老师",
		  "phoneNumber" : "15895946925",
		  "teleOpr" : "移动",
		  "type" : "家庭"
	   },
	   {
		  "location" : {
			 "city" : "抚顺",
			 "country" : "中国",
			 "province" : "辽宁"
		  },
		  "name" : "新华保险员",
		  "phoneNumber" : "15841353241",
		  "teleOpr" : "移动",
		  "type" : "家庭"
	   },
	   {
		  "location" : {
			 "city" : "绵阳",
			 "country" : "中国",
			 "province" : "四川"
		  },
		  "name" : "刘喜华",
		  "phoneNumber" : "15882879212",
		  "teleOpr" : "移动",
		  "type" : "家庭"
	   },
	   {
		  "location" : {
			 "city" : "吉首",
			 "country" : "中国",
			 "province" : "湖南"
		  },
		  "name" : "蒋淑华",
		  "phoneNumber" : "15874336216",
		  "teleOpr" : "移动",
		  "type" : "家庭"
	   },
	   {
		  "location" : {
			 "city" : "红河",
			 "country" : "中国",
			 "province" : "云南"
		  },
		  "name" : "童师修车",
		  "phoneNumber" : "15987327304",
		  "teleOpr" : "移动",
		  "type" : "家庭"
	   },
	   {
		  "location" : {
			 "city" : "金华",
			 "country" : "中国",
			 "province" : "浙江"
		  },
		  "name" : "宋永丽新",
		  "phoneNumber" : "15958423362",
		  "teleOpr" : "移动",
		  "type" : "家庭"
	   },
	   {
		  "location" : {
			 "city" : "青岛",
			 "country" : "中国",
			 "province" : "山东"
		  },
		  "name" : "余老表",
		  "phoneNumber" : "15965571823",
		  "teleOpr" : "移动",
		  "type" : "家庭"
	   },
	   {
		  "location" : {
			 "city" : "济南",
			 "country" : "中国",
			 "province" : "山东"
		  },
		  "name" : "何泽全",
		  "phoneNumber" : "15966649557",
		  "teleOpr" : "移动",
		  "type" : "家庭"
	   },
	   {
		  "location" : {
			 "city" : "沈阳",
			 "country" : "中国",
			 "province" : "辽宁"
		  },
		  "name" : "老为",
		  "phoneNumber" : "15940214740",
		  "teleOpr" : "移动",
		  "type" : "家庭"
	   },
	   {
		  "location" : {
			 "city" : "商丘",
			 "country" : "中国",
			 "province" : "河南"
		  },
		  "name" : "肖建斌新",
		  "phoneNumber" : "15939092117",
		  "teleOpr" : "移动",
		  "type" : "家庭"
	   },
	   {
		  "location" : {
			 "city" : "长春",
			 "country" : "中国",
			 "province" : "吉林"
		  },
		  "name" : "周卫东",
		  "phoneNumber" : "15948273554",
		  "teleOpr" : "移动",
		  "type" : "家庭"
	   },
	   {
		  "location" : {
			 "city" : "济南",
			 "country" : "中国",
			 "province" : "山东"
		  },
		  "name" : "徐汇珍",
		  "phoneNumber" : "15966320415",
		  "teleOpr" : "移动",
		  "type" : "家庭"
	   },
	   {
		  "location" : {
			 "city" : "晋中",
			 "country" : "中国",
			 "province" : "山西"
		  },
		  "name" : "何群音手机",
		  "phoneNumber" : "18234417903",
		  "teleOpr" : "移动",
		  "type" : "家庭"
	   },
	   {
		  "location" : {
			 "city" : "合肥",
			 "country" : "中国",
			 "province" : "安徽"
		  },
		  "name" : "周保成家",
		  "phoneNumber" : "18205652164",
		  "teleOpr" : "移动",
		  "type" : "家庭"
	   },
	   {
		  "location" : {
			 "city" : "吕梁",
			 "country" : "中国",
			 "province" : "山西"
		  },
		  "name" : "童祝红",
		  "phoneNumber" : "18235861322",
		  "teleOpr" : "移动",
		  "type" : "家庭"
	   },
	   {
		  "location" : {
			 "city" : "西安",
			 "country" : "中国",
			 "province" : "陕西"
		  },
		  "name" : "钱程新",
		  "phoneNumber" : "18220562785",
		  "teleOpr" : "移动",
		  "type" : "家庭"
	   },
	   {
		  "location" : {
			 "city" : "巴中",
			 "country" : "中国",
			 "province" : "四川"
		  },
		  "name" : "朱林",
		  "phoneNumber" : "18282725193",
		  "teleOpr" : "移动",
		  "type" : "家庭"
	   },
	   {
		  "location" : {
			 "city" : "杭州",
			 "country" : "中国",
			 "province" : "浙江"
		  },
		  "name" : "网吧大哥",
		  "phoneNumber" : "18258412536",
		  "teleOpr" : "移动",
		  "type" : "家庭"
	   },
	   {
		  "location" : {
			 "city" : "成都",
			 "country" : "中国",
			 "province" : "四川"
		  },
		  "name" : "张宾",
		  "phoneNumber" : "18284505054",
		  "teleOpr" : "移动",
		  "type" : "家庭"
	   },
	   {
		  "location" : {
			 "city" : "桂林",
			 "country" : "中国",
			 "province" : "广西"
		  },
		  "name" : "吕林伟",
		  "phoneNumber" : "18290034643",
		  "teleOpr" : "移动",
		  "type" : "家庭"
	   },
	   {
		  "location" : {
			 "city" : "肇庆",
			 "country" : "中国",
			 "province" : "广东"
		  },
		  "name" : "任建华",
		  "phoneNumber" : "18211268665",
		  "teleOpr" : "移动",
		  "type" : "家庭"
	   },
	   {
		  "location" : {
			 "city" : "乐山",
			 "country" : "中国",
			 "province" : "四川"
		  },
		  "name" : "王红宾",
		  "phoneNumber" : "18227863670",
		  "teleOpr" : "移动",
		  "type" : "家庭"
	   },
	   {
		  "location" : {
			 "city" : "都匀",
			 "country" : "中国",
			 "province" : "贵州"
		  },
		  "name" : "王河",
		  "phoneNumber" : "18375246585",
		  "teleOpr" : "移动",
		  "type" : "家庭"
	   },
	   {
		  "location" : {
			 "city" : "宣城",
			 "country" : "中国",
			 "province" : "安徽"
		  },
		  "name" : "董洪富",
		  "phoneNumber" : "18356393856",
		  "teleOpr" : "移动",
		  "type" : "家庭"
	   },
	   {
		  "location" : {
			 "city" : "铜川",
			 "country" : "中国",
			 "province" : "陕西"
		  },
		  "name" : "宋青",
		  "phoneNumber" : "18329591454",
		  "teleOpr" : "移动",
		  "type" : "家庭"
	   },
	   {
		  "location" : {
			 "city" : "威海",
			 "country" : "中国",
			 "province" : "山东"
		  },
		  "name" : "取产权证",
		  "phoneNumber" : "18306313806",
		  "teleOpr" : "移动",
		  "type" : "家庭"
	   },
	   {
		  "location" : {
			 "city" : "河源",
			 "country" : "中国",
			 "province" : "广东"
		  },
		  "name" : "赵南",
		  "phoneNumber" : "18318364654",
		  "teleOpr" : "移动",
		  "type" : "家庭"
	   },
	   {
		  "location" : {
			 "city" : "安阳",
			 "country" : "中国",
			 "province" : "河南"
		  },
		  "name" : "冯乐",
		  "phoneNumber" : "18337204847",
		  "teleOpr" : "移动",
		  "type" : "家庭"
	   },
	   {
		  "location" : {
			 "city" : "玉林",
			 "country" : "中国",
			 "province" : "广西"
		  },
		  "name" : "谭顺勇",
		  "phoneNumber" : "18307755807",
		  "teleOpr" : "移动",
		  "type" : "家庭"
	   },
	   {
		  "location" : {
			 "city" : "达州",
			 "country" : "中国",
			 "province" : "四川"
		  },
		  "name" : "雷平",
		  "phoneNumber" : "18384858726",
		  "teleOpr" : "移动",
		  "type" : "家庭"
	   },
	   {
		  "location" : {
			 "city" : "宁波",
			 "country" : "中国",
			 "province" : "浙江"
		  },
		  "name" : "黄序虎",
		  "phoneNumber" : "18358462465",
		  "teleOpr" : "移动",
		  "type" : "家庭"
	   },
	   {
		  "location" : {
			 "city" : "四平",
			 "country" : "中国",
			 "province" : "吉林"
		  },
		  "name" : "苟处",
		  "phoneNumber" : "18343490980",
		  "teleOpr" : "移动",
		  "type" : "家庭"
	   },
	   {
		  "location" : {
			 "city" : "达州",
			 "country" : "中国",
			 "province" : "四川"
		  },
		  "name" : "谈老",
		  "phoneNumber" : "18381884130",
		  "teleOpr" : "移动",
		  "type" : "家庭"
	   },
	   {
		  "location" : {
			 "city" : "唐山",
			 "country" : "中国",
			 "province" : "河北"
		  },
		  "name" : "周周",
		  "phoneNumber" : "18332752542",
		  "teleOpr" : "移动",
		  "type" : "家庭"
	   },
	   {
		  "location" : {
			 "city" : "宜春",
			 "country" : "中国",
			 "province" : "江西"
		  },
		  "name" : "李鹏赛门",
		  "phoneNumber" : "18470552627",
		  "teleOpr" : "移动",
		  "type" : "家庭"
	   },
	   {
		  "location" : {
			 "city" : "南宁",
			 "country" : "中国",
			 "province" : "广西"
		  },
		  "name" : "涂强",
		  "phoneNumber" : "18776114562",
		  "teleOpr" : "移动",
		  "type" : "家庭"
	   },
	   {
		  "location" : {
			 "city" : "乐山",
			 "country" : "中国",
			 "province" : "四川"
		  },
		  "name" : "姚红",
		  "phoneNumber" : "18784535718",
		  "teleOpr" : "移动",
		  "type" : "家庭"
	   },
	   {
		  "location" : {
			 "city" : "淮安",
			 "country" : "中国",
			 "province" : "江苏"
		  },
		  "name" : "马晓东",
		  "phoneNumber" : "18751279886",
		  "teleOpr" : "移动",
		  "type" : "家庭"
	   },
	   {
		  "location" : {
			 "city" : "张家界",
			 "country" : "中国",
			 "province" : "湖南"
		  },
		  "name" : "赵工熔接",
		  "phoneNumber" : "18774529890",
		  "teleOpr" : "移动",
		  "type" : "家庭"
	   },
	   {
		  "location" : {
			 "city" : "大理",
			 "country" : "中国",
			 "province" : "云南"
		  },
		  "name" : "鱼凫营销",
		  "phoneNumber" : "18724997922",
		  "teleOpr" : "移动",
		  "type" : "家庭"
	   },
	   {
		  "location" : {
			 "city" : "渭南",
			 "country" : "中国",
			 "province" : "陕西"
		  },
		  "name" : "林进",
		  "phoneNumber" : "18792305382",
		  "teleOpr" : "移动",
		  "type" : "家庭"
	   },
	   {
		  "location" : {
			 "city" : "宜春",
			 "country" : "中国",
			 "province" : "江西"
		  },
		  "name" : "李凡",
		  "phoneNumber" : "18779570685",
		  "teleOpr" : "移动",
		  "type" : "家庭"
	   },
	   {
		  "location" : {
			 "city" : "西安",
			 "country" : "中国",
			 "province" : "陕西"
		  },
		  "name" : "明发勇",
		  "phoneNumber" : "18792844730",
		  "teleOpr" : "移动",
		  "type" : "家庭"
	   },
	   {
		  "location" : {
			 "city" : "临沂",
			 "country" : "中国",
			 "province" : "山东"
		  },
		  "name" : "王阳",
		  "phoneNumber" : "18754919649",
		  "teleOpr" : "移动",
		  "type" : "家庭"
	   },
	   {
		  "location" : {
			 "city" : "金华",
			 "country" : "中国",
			 "province" : "浙江"
		  },
		  "name" : "袁祈彦",
		  "phoneNumber" : "18757917762",
		  "teleOpr" : "移动",
		  "type" : "家庭"
	   },
	   {
		  "location" : {
			 "city" : "东营",
			 "country" : "中国",
			 "province" : "山东"
		  },
		  "name" : "王宇",
		  "phoneNumber" : "18706658084",
		  "teleOpr" : "移动",
		  "type" : "家庭"
	   },
	   {
		  "location" : {
			 "city" : "大理",
			 "country" : "中国",
			 "province" : "云南"
		  },
		  "name" : "宜必思",
		  "phoneNumber" : "18760950847",
		  "teleOpr" : "移动",
		  "type" : "家庭"
	   },
	   {
		  "location" : {
			 "city" : "十堰",
			 "country" : "中国",
			 "province" : "湖北"
		  },
		  "name" : "李紧林",
		  "phoneNumber" : "18772212106",
		  "teleOpr" : "移动",
		  "type" : "家庭"
	   },
	   {
		  "location" : {
			 "city" : "长治",
			 "country" : "中国",
			 "province" : "山西"
		  },
		  "name" : "卢少波",
		  "phoneNumber" : "18734508013",
		  "teleOpr" : "移动",
		  "type" : "家庭"
	   },
	   {
		  "location" : {
			 "city" : "德州",
			 "country" : "中国",
			 "province" : "山东"
		  },
		  "name" : "驴肉",
		  "phoneNumber" : "18753405377",
		  "teleOpr" : "移动",
		  "type" : "家庭"
	   },
	   {
		  "location" : {
			 "city" : "鄂尔多斯",
			 "country" : "中国",
			 "province" : "内蒙古"
		  },
		  "name" : "刘雪玲",
		  "phoneNumber" : "18847790282",
		  "teleOpr" : "移动",
		  "type" : "家庭"
	   },
	   {
		  "location" : {
			 "city" : "上饶",
			 "country" : "中国",
			 "province" : "江西"
		  },
		  "name" : "胡丽佳杰",
		  "phoneNumber" : "18879388980",
		  "teleOpr" : "移动",
		  "type" : "家庭"
	   },
	   {
		  "location" : {
			 "city" : "眉山",
			 "country" : "中国",
			 "province" : "四川"
		  },
		  "name" : "白丽",
		  "phoneNumber" : "18828303401",
		  "teleOpr" : "移动",
		  "type" : "家庭"
	   },
	   {
		  "location" : {
			 "city" : "株洲",
			 "country" : "中国",
			 "province" : "湖南"
		  },
		  "name" : "朱智刚",
		  "phoneNumber" : "18867304237",
		  "teleOpr" : "移动",
		  "type" : "家庭"
	   },
	   {
		  "location" : {
			 "city" : "资阳",
			 "country" : "中国",
			 "province" : "四川"
		  },
		  "name" : "谢伟",
		  "phoneNumber" : "18882107855",
		  "teleOpr" : "移动",
		  "type" : "家庭"
	   },
	   {
		  "location" : {
			 "city" : "成都",
			 "country" : "中国",
			 "province" : "四川"
		  },
		  "name" : "李教练",
		  "phoneNumber" : "18884092860",
		  "teleOpr" : "移动",
		  "type" : "家庭"
	   },
	   {
		  "location" : {
			 "city" : "晋城",
			 "country" : "中国",
			 "province" : "山西"
		  },
		  "name" : "洋洋",
		  "phoneNumber" : "18835642243",
		  "teleOpr" : "移动",
		  "type" : "家庭"
	   },
	   {
		  "location" : {
			 "city" : "天水",
			 "country" : "中国",
			 "province" : "甘肃"
		  },
		  "name" : "陈孝齐",
		  "phoneNumber" : "18809388274",
		  "teleOpr" : "移动",
		  "type" : "家庭"
	   },
	   {
		  "location" : {
			 "city" : "铁岭",
			 "country" : "中国",
			 "province" : "辽宁"
		  },
		  "name" : "刘静",
		  "phoneNumber" : "18841042793",
		  "teleOpr" : "移动",
		  "type" : "家庭"
	   },
	   {
		  "location" : {
			 "city" : "佛山",
			 "country" : "中国",
			 "province" : "广东"
		  },
		  "name" : "秦峰新旦",
		  "phoneNumber" : "18823492070",
		  "teleOpr" : "移动",
		  "type" : "家庭"
	   },
	   {
		  "location" : {
			 "city" : "常州",
			 "country" : "中国",
			 "province" : "江苏"
		  },
		  "name" : "利澳",
		  "phoneNumber" : "18861156524",
		  "teleOpr" : "移动",
		  "type" : "家庭"
	   },
	   {
		  "location" : {
			 "city" : "文山",
			 "country" : "中国",
			 "province" : "云南"
		  },
		  "name" : "邓欣",
		  "phoneNumber" : "13095382746",
		  "teleOpr" : "联通",
		  "type" : "家庭"
	   },
	   {
		  "location" : {
			 "city" : "百色",
			 "country" : "中国",
			 "province" : "广西"
		  },
		  "name" : "高艺锋",
		  "phoneNumber" : "13097862042",
		  "teleOpr" : "联通",
		  "type" : "家庭"
	   },
	   {
		  "location" : {
			 "city" : "广州",
			 "country" : "中国",
			 "province" : "广东"
		  },
		  "name" : "饶晓",
		  "phoneNumber" : "13049635755",
		  "teleOpr" : "联通",
		  "type" : "家庭"
	   },
	   {
		  "location" : {
			 "city" : "莱芜",
			 "country" : "中国",
			 "province" : "山东"
		  },
		  "name" : "丁峰",
		  "phoneNumber" : "13012752808",
		  "teleOpr" : "联通",
		  "type" : "家庭"
	   },
	   {
		  "location" : {
			 "city" : "无锡",
			 "country" : "中国",
			 "province" : "江苏"
		  },
		  "name" : "王永福",
		  "phoneNumber" : "13003391579",
		  "teleOpr" : "联通",
		  "type" : "家庭"
	   },
	   {
		  "location" : {
			 "city" : "贵阳",
			 "country" : "中国",
			 "province" : "贵州"
		  },
		  "name" : "梦幻",
		  "phoneNumber" : "13078564755",
		  "teleOpr" : "联通",
		  "type" : "家庭"
	   },
	   {
		  "location" : {
			 "city" : "呼和浩特",
			 "country" : "中国",
			 "province" : "内蒙古"
		  },
		  "name" : "棕北修车",
		  "phoneNumber" : "13074753528",
		  "teleOpr" : "联通",
		  "type" : "家庭"
	   },
	   {
		  "location" : {
			 "city" : "广州",
			 "country" : "中国",
			 "province" : "广东"
		  },
		  "name" : "蒋经理江油",
		  "phoneNumber" : "13119570749",
		  "teleOpr" : "联通",
		  "type" : "家庭"
	   },
	   {
		  "location" : {
			 "city" : "红河",
			 "country" : "中国",
			 "province" : "云南"
		  },
		  "name" : "叶文锦江",
		  "phoneNumber" : "13187949452",
		  "teleOpr" : "联通",
		  "type" : "家庭"
	   },
	   {
		  "location" : {
			 "city" : "石家庄",
			 "country" : "中国",
			 "province" : "河北"
		  },
		  "name" : "新绿茶房",
		  "phoneNumber" : "13165543412",
		  "teleOpr" : "联通",
		  "type" : "家庭"
	   },
	   {
		  "location" : {
			 "city" : "盐城",
			 "country" : "中国",
			 "province" : "江苏"
		  },
		  "name" : "蔡兰州",
		  "phoneNumber" : "13196651317",
		  "teleOpr" : "联通",
		  "type" : "家庭"
	   },
	   {
		  "location" : {
			 "city" : "常州",
			 "country" : "中国",
			 "province" : "江苏"
		  },
		  "name" : "姚主任烟草",
		  "phoneNumber" : "13182510366",
		  "teleOpr" : "联通",
		  "type" : "家庭"
	   },
	   {
		  "location" : {
			 "city" : "兰州",
			 "country" : "中国",
			 "province" : "甘肃"
		  },
		  "name" : "张华君",
		  "phoneNumber" : "13119408389",
		  "teleOpr" : "联通",
		  "type" : "家庭"
	   },
	   {
		  "location" : {
			 "city" : "东莞",
			 "country" : "中国",
			 "province" : "广东"
		  },
		  "name" : "小邵杭州",
		  "phoneNumber" : "13148573938",
		  "teleOpr" : "联通",
		  "type" : "家庭"
	   },
	   {
		  "location" : {
			 "city" : "兰州",
			 "country" : "中国",
			 "province" : "甘肃"
		  },
		  "name" : "宋杜春雷",
		  "phoneNumber" : "13109414450",
		  "teleOpr" : "联通",
		  "type" : "家庭"
	   },
	   {
		  "location" : {
			 "city" : "新乡",
			 "country" : "中国",
			 "province" : "河南"
		  },
		  "name" : "黄永明",
		  "phoneNumber" : "15670508719",
		  "teleOpr" : "联通",
		  "type" : "家庭"
	   },
	   {
		  "location" : {
			 "city" : "丹东",
			 "country" : "中国",
			 "province" : "辽宁"
		  },
		  "name" : "李科光大",
		  "phoneNumber" : "15604255957",
		  "teleOpr" : "联通",
		  "type" : "家庭"
	   },
	   {
		  "location" : {
			 "city" : "太原",
			 "country" : "中国",
			 "province" : "山西"
		  },
		  "name" : "孙红",
		  "phoneNumber" : "15635139369",
		  "teleOpr" : "联通",
		  "type" : "家庭"
	   },
	   {
		  "location" : {
			 "city" : "大连",
			 "country" : "中国",
			 "province" : "辽宁"
		  },
		  "name" : "肖建",
		  "phoneNumber" : "15641114083",
		  "teleOpr" : "联通",
		  "type" : "家庭"
	   },
	   {
		  "location" : {
			 "city" : "邵阳",
			 "country" : "中国",
			 "province" : "湖南"
		  },
		  "name" : "王心益",
		  "phoneNumber" : "15684937751",
		  "teleOpr" : "联通",
		  "type" : "家庭"
	   },
	   {
		  "location" : {
			 "city" : "唐山",
			 "country" : "中国",
			 "province" : "河北"
		  },
		  "name" : "张磊",
		  "phoneNumber" : "15632848982",
		  "teleOpr" : "联通",
		  "type" : "家庭"
	   },
	   {
		  "location" : {
			 "city" : "廊坊",
			 "country" : "中国",
			 "province" : "河北"
		  },
		  "name" : "羊高清",
		  "phoneNumber" : "15613635311",
		  "teleOpr" : "联通",
		  "type" : "家庭"
	   },
	   {
		  "location" : {
			 "city" : "保定",
			 "country" : "中国",
			 "province" : "河北"
		  },
		  "name" : "郭冰",
		  "phoneNumber" : "15613274596",
		  "teleOpr" : "联通",
		  "type" : "家庭"
	   },
	   {
		  "location" : {
			 "city" : "揭阳",
			 "country" : "中国",
			 "province" : "广东"
		  },
		  "name" : "坚持张总",
		  "phoneNumber" : "15627096916",
		  "teleOpr" : "联通",
		  "type" : "家庭"
	   },
	   {
		  "location" : {
			 "city" : "成都",
			 "country" : "中国",
			 "province" : "四川"
		  },
		  "name" : "雅歌丹",
		  "phoneNumber" : "15608176675",
		  "teleOpr" : "联通",
		  "type" : "家庭"
	   }
	]
}
